[
  {
    "": 25071,
    "DEST_AIRPORT_ID": 10397,
    "DEST": "ATL",
    "DEST_CITY_NAME": "Atlanta, GA",
    "DISTANCE": 356,
    "DISTANCE_GROUP": 2,
    "CITY": "Atlanta",
    "STATE": "GA",
    "LATITUDE": 33.7489924,
    "LONGITUDE": -84.3902644
  },
  {
    "": 167951,
    "DEST_AIRPORT_ID": 10423,
    "DEST": "AUS",
    "DEST_CITY_NAME": "Austin, TX",
    "DISTANCE": 1162,
    "DISTANCE_GROUP": 5,
    "CITY": "Austin",
    "STATE": "TX",
    "LATITUDE": 30.2711286,
    "LONGITUDE": -97.7436995
  },
  {
    "": 67061,
    "DEST_AIRPORT_ID": 10821,
    "DEST": "BWI",
    "DEST_CITY_NAME": "Baltimore, MD",
    "DISTANCE": 255,
    "DISTANCE_GROUP": 2,
    "CITY": "Baltimore",
    "STATE": "MD",
    "LATITUDE": 39.2908816,
    "LONGITUDE": -76.610759
  },
  {
    "": 329049,
    "DEST_AIRPORT_ID": 10721,
    "DEST": "BOS",
    "DEST_CITY_NAME": "Boston, MA",
    "DISTANCE": 612,
    "DISTANCE_GROUP": 3,
    "CITY": "Boston",
    "STATE": "MA",
    "LATITUDE": 42.3602534,
    "LONGITUDE": -71.0582912
  },
  {
    "": 91,
    "DEST_AIRPORT_ID": 11057,
    "DEST": "CLT",
    "DEST_CITY_NAME": "Charlotte, NC",
    "DISTANCE": 130,
    "DISTANCE_GROUP": 1,
    "CITY": "Charlotte",
    "STATE": "NC",
    "LATITUDE": 35.2272086,
    "LONGITUDE": -80.8430827
  },
  {
    "": 67066,
    "DEST_AIRPORT_ID": 13232,
    "DEST": "MDW",
    "DEST_CITY_NAME": "Chicago, IL (MDW)",
    "DISTANCE": 632,
    "DISTANCE_GROUP": 3,
    "CITY": "Chicago",
    "STATE": "IL",
    "LATITUDE": 41.8755616,
    "LONGITUDE": -87.6244212
  },
  {
    "": 8205,
    "DEST_AIRPORT_ID": 13930,
    "DEST": "ORD",
    "DEST_CITY_NAME": "Chicago, IL (ORD)",
    "DISTANCE": 646,
    "DISTANCE_GROUP": 3,
    "CITY": "Chicago",
    "STATE": "IL",
    "LATITUDE": 41.8755616,
    "LONGITUDE": -87.6244212
  },
  {
    "": 165101,
    "DEST_AIRPORT_ID": 11259,
    "DEST": "DAL",
    "DEST_CITY_NAME": "Dallas, TX",
    "DISTANCE": 1052,
    "DISTANCE_GROUP": 5,
    "CITY": "Dallas",
    "STATE": "TX",
    "LATITUDE": 32.7762719,
    "LONGITUDE": -96.7968559
  },
  {
    "": 3975,
    "DEST_AIRPORT_ID": 11298,
    "DEST": "DFW",
    "DEST_CITY_NAME": "Dallas/Fort Worth, TX",
    "DISTANCE": 1061,
    "DISTANCE_GROUP": 5,
    "CITY": "Dallas/Fort Worth",
    "STATE": "TX",
    "LATITUDE": 32.760728,
    "LONGITUDE": -97.239286
  },
  {
    "": 67064,
    "DEST_AIRPORT_ID": 11292,
    "DEST": "DEN",
    "DEST_CITY_NAME": "Denver, CO",
    "DISTANCE": 1436,
    "DISTANCE_GROUP": 6,
    "CITY": "Denver",
    "STATE": "CO",
    "LATITUDE": 5.3428475,
    "LONGITUDE": -72.3959849
  },
  {
    "": 25474,
    "DEST_AIRPORT_ID": 11433,
    "DEST": "DTW",
    "DEST_CITY_NAME": "Detroit, MI",
    "DISTANCE": 501,
    "DISTANCE_GROUP": 3,
    "CITY": "Detroit",
    "STATE": "MI",
    "LATITUDE": 42.3315509,
    "LONGITUDE": -83.0466403
  },
  {
    "": 38168,
    "DEST_AIRPORT_ID": 11697,
    "DEST": "FLL",
    "DEST_CITY_NAME": "Fort Lauderdale, FL",
    "DISTANCE": 680,
    "DISTANCE_GROUP": 3,
    "CITY": "Fort Lauderdale",
    "STATE": "FL",
    "LATITUDE": 26.1223084,
    "LONGITUDE": -80.1433786
  },
  {
    "": 332169,
    "DEST_AIRPORT_ID": 14635,
    "DEST": "RSW",
    "DEST_CITY_NAME": "Fort Myers, FL",
    "DISTANCE": 667,
    "DISTANCE_GROUP": 3,
    "CITY": "Fort Myers",
    "STATE": "FL",
    "LATITUDE": 26.640628,
    "LONGITUDE": -81.8723084
  },
  {
    "": 223951,
    "DEST_AIRPORT_ID": 12266,
    "DEST": "IAH",
    "DEST_CITY_NAME": "Houston, TX (IAH)",
    "DISTANCE": 1042,
    "DISTANCE_GROUP": 5,
    "CITY": "Houston",
    "STATE": "TX",
    "LATITUDE": 29.7589382,
    "LONGITUDE": -95.3676974
  },
  {
    "": 165104,
    "DEST_AIRPORT_ID": 12191,
    "DEST": "HOU",
    "DEST_CITY_NAME": "Houston, TX (HOU)",
    "DISTANCE": 1050,
    "DISTANCE_GROUP": 5,
    "CITY": "Houston",
    "STATE": "TX",
    "LATITUDE": 29.7589382,
    "LONGITUDE": -95.3676974
  },
  {
    "": 71421,
    "DEST_AIRPORT_ID": 12889,
    "DEST": "LAS",
    "DEST_CITY_NAME": "Las Vegas, NV",
    "DISTANCE": 2026,
    "DISTANCE_GROUP": 9,
    "CITY": "Las Vegas",
    "STATE": "NV",
    "LATITUDE": 36.1672559,
    "LONGITUDE": -115.1485163
  },
  {
    "": 24594,
    "DEST_AIRPORT_ID": 12892,
    "DEST": "LAX",
    "DEST_CITY_NAME": "Los Angeles, CA",
    "DISTANCE": 2239,
    "DISTANCE_GROUP": 9,
    "CITY": "Los Angeles",
    "STATE": "CA",
    "LATITUDE": 34.0536909,
    "LONGITUDE": -118.242766
  },
  {
    "": 8202,
    "DEST_AIRPORT_ID": 13303,
    "DEST": "MIA",
    "DEST_CITY_NAME": "Miami, FL",
    "DISTANCE": 700,
    "DISTANCE_GROUP": 3,
    "CITY": "Miami",
    "STATE": "FL",
    "LATITUDE": 25.7741728,
    "LONGITUDE": -80.19362
  },
  {
    "": 25456,
    "DEST_AIRPORT_ID": 13487,
    "DEST": "MSP",
    "DEST_CITY_NAME": "Minneapolis, MN",
    "DISTANCE": 980,
    "DISTANCE_GROUP": 4,
    "CITY": "Minneapolis",
    "STATE": "MN",
    "LATITUDE": 44.9772995,
    "LONGITUDE": -93.2654692
  },
  {
    "": 67059,
    "DEST_AIRPORT_ID": 10693,
    "DEST": "BNA",
    "DEST_CITY_NAME": "Nashville, TN",
    "DISTANCE": 442,
    "DISTANCE_GROUP": 2,
    "CITY": "Nashville",
    "STATE": "TN",
    "LATITUDE": 36.1622296,
    "LONGITUDE": -86.7743531
  },
  {
    "": 165110,
    "DEST_AIRPORT_ID": 13495,
    "DEST": "MSY",
    "DEST_CITY_NAME": "New Orleans, LA",
    "DISTANCE": 779,
    "DISTANCE_GROUP": 4,
    "CITY": "New Orleans",
    "STATE": "LA",
    "LATITUDE": 29.9499323,
    "LONGITUDE": -90.0701156
  },
  {
    "": 141095,
    "DEST_AIRPORT_ID": 12478,
    "DEST": "JFK",
    "DEST_CITY_NAME": "New York, NY (JFK)",
    "DISTANCE": 427,
    "DISTANCE_GROUP": 2,
    "CITY": "New York",
    "STATE": "NY",
    "LATITUDE": 40.7127281,
    "LONGITUDE": -74.0060152
  },
  {
    "": 345043,
    "DEST_AIRPORT_ID": 12953,
    "DEST": "LGA",
    "DEST_CITY_NAME": "New York, NY (LGA)",
    "DISTANCE": 431,
    "DISTANCE_GROUP": 2,
    "CITY": "New York",
    "STATE": "NY",
    "LATITUDE": 40.7127281,
    "LONGITUDE": -74.0060152
  },
  {
    "": 143829,
    "DEST_AIRPORT_ID": 11618,
    "DEST": "EWR",
    "DEST_CITY_NAME": "Newark, NJ",
    "DISTANCE": 416,
    "DISTANCE_GROUP": 2,
    "CITY": "Newark",
    "STATE": "NJ",
    "LATITUDE": 40.735657,
    "LONGITUDE": -74.1723667
  },
  {
    "": 67065,
    "DEST_AIRPORT_ID": 13204,
    "DEST": "MCO",
    "DEST_CITY_NAME": "Orlando, FL",
    "DISTANCE": 534,
    "DISTANCE_GROUP": 3,
    "CITY": "Orlando",
    "STATE": "FL",
    "LATITUDE": 28.5421109,
    "LONGITUDE": -81.3790304
  },
  {
    "": 6939,
    "DEST_AIRPORT_ID": 14100,
    "DEST": "PHL",
    "DEST_CITY_NAME": "Philadelphia, PA",
    "DISTANCE": 337,
    "DISTANCE_GROUP": 2,
    "CITY": "Philadelphia",
    "STATE": "PA",
    "LATITUDE": 39.9527237,
    "LONGITUDE": -75.1635262
  },
  {
    "": 67069,
    "DEST_AIRPORT_ID": 14107,
    "DEST": "PHX",
    "DEST_CITY_NAME": "Phoenix, AZ",
    "DISTANCE": 1891,
    "DISTANCE_GROUP": 8,
    "CITY": "Phoenix",
    "STATE": "AZ",
    "LATITUDE": 33.4484367,
    "LONGITUDE": -112.0741417
  },
  {
    "": 215120,
    "DEST_AIRPORT_ID": 14082,
    "DEST": "PGD",
    "DEST_CITY_NAME": "Punta Gorda, FL",
    "DISTANCE": 645,
    "DISTANCE_GROUP": 3,
    "CITY": "Punta Gorda",
    "STATE": "FL",
    "LATITUDE": 26.9297836,
    "LONGITUDE": -82.0453664
  },
  {
    "": 24058,
    "DEST_AIRPORT_ID": 14869,
    "DEST": "SLC",
    "DEST_CITY_NAME": "Salt Lake City, UT",
    "DISTANCE": 1823,
    "DISTANCE_GROUP": 8,
    "CITY": "Salt Lake City",
    "STATE": "UT",
    "LATITUDE": 40.7596198,
    "LONGITUDE": -111.8867975
  },
  {
    "": 119234,
    "DEST_AIRPORT_ID": 14843,
    "DEST": "SJU",
    "DEST_CITY_NAME": "San Juan, PR",
    "DISTANCE": 1433,
    "DISTANCE_GROUP": 6,
    "CITY": "San Juan",
    "STATE": "PR",
    "LATITUDE": -25.4206759,
    "LONGITUDE": -49.2687429
  },
  {
    "": 216470,
    "DEST_AIRPORT_ID": 14761,
    "DEST": "SFB",
    "DEST_CITY_NAME": "Sanford, FL",
    "DISTANCE": 510,
    "DISTANCE_GROUP": 3,
    "CITY": "Sanford",
    "STATE": "FL",
    "LATITUDE": 28.8117297,
    "LONGITUDE": -81.2680345
  },
  {
    "": 24558,
    "DEST_AIRPORT_ID": 14747,
    "DEST": "SEA",
    "DEST_CITY_NAME": "Seattle, WA",
    "DISTANCE": 2354,
    "DISTANCE_GROUP": 10,
    "CITY": "Seattle",
    "STATE": "WA",
    "LATITUDE": 47.6038321,
    "LONGITUDE": -122.3300624
  },
  {
    "": 67070,
    "DEST_AIRPORT_ID": 15016,
    "DEST": "STL",
    "DEST_CITY_NAME": "St. Louis, MO",
    "DISTANCE": 667,
    "DISTANCE_GROUP": 3,
    "CITY": "St. Louis",
    "STATE": "MO",
    "LATITUDE": 38.6529545,
    "LONGITUDE": -90.2411166
  },
  {
    "": 133950,
    "DEST_AIRPORT_ID": 15304,
    "DEST": "TPA",
    "DEST_CITY_NAME": "Tampa, FL",
    "DISTANCE": 587,
    "DISTANCE_GROUP": 3,
    "CITY": "Tampa",
    "STATE": "FL",
    "LATITUDE": 27.9477595,
    "LONGITUDE": -82.458444
  },
  {
    "": 148386,
    "DEST_AIRPORT_ID": 12264,
    "DEST": "IAD",
    "DEST_CITY_NAME": "Washington, DC",
    "DISTANCE": 224,
    "DISTANCE_GROUP": 1,
    "CITY": "Washington",
    "STATE": "DC",
    "LATITUDE": 38.8950368,
    "LONGITUDE": -77.0365427
  }
]